[
  {
    "season": 2022,
    "teamId": "1610612755",
    "team": "76ers",
    "city": "Philadelphia",
    "abbr": "PHI",
    "conference": "East",
    "lat": 39.9526,
    "lon": -75.1652,
    "offRtg": 111.44,
    "threeRate": 0.395,
    "threePct": 0.3774,
    "wins": 18.0,
    "losses": 12.0
  },
  {
    "season": 2022,
    "teamId": "1610612749",
    "team": "Bucks",
    "city": "Milwaukee",
    "abbr": "MIL",
    "conference": "East",
    "lat": 43.0389,
    "lon": -87.9065,
    "offRtg": 111.78,
    "threeRate": 0.4258,
    "threePct": 0.3525,
    "wins": 22.0,
    "losses": 9.0
  },
  {
    "season": 2022,
    "teamId": "1610612741",
    "team": "Bulls",
    "city": "Chicago",
    "abbr": "CHI",
    "conference": "East",
    "lat": 41.8781,
    "lon": -87.6298,
    "offRtg": 114.4,
    "threeRate": 0.332,
    "threePct": 0.3686,
    "wins": 13.0,
    "losses": 18.0
  },
  {
    "season": 2022,
    "teamId": "1610612739",
    "team": "Cavaliers",
    "city": "Cleveland",
    "abbr": "CLE",
    "conference": "East",
    "lat": 41.4993,
    "lon": -81.6944,
    "offRtg": 110.41,
    "threeRate": 0.3689,
    "threePct": 0.37,
    "wins": 22.0,
    "losses": 11.0
  },
  {
    "season": 2022,
    "teamId": "1610612738",
    "team": "Celtics",
    "city": "Boston",
    "abbr": "BOS",
    "conference": "East",
    "lat": 42.3601,
    "lon": -71.0589,
    "offRtg": 118.75,
    "threeRate": 0.4855,
    "threePct": 0.38,
    "wins": 22.0,
    "losses": 10.0
  },
  {
    "season": 2022,
    "teamId": "1610612746",
    "team": "Clippers",
    "city": "Los Angeles",
    "abbr": "LAC",
    "conference": "West",
    "lat": 34.0522,
    "lon": -118.2437,
    "offRtg": 107.89,
    "threeRate": 0.3958,
    "threePct": 0.3706,
    "wins": 19.0,
    "losses": 14.0
  },
  {
    "season": 2022,
    "teamId": "1610612763",
    "team": "Grizzlies",
    "city": "Memphis",
    "abbr": "MEM",
    "conference": "West",
    "lat": 35.1495,
    "lon": -90.049,
    "offRtg": 114.74,
    "threeRate": 0.3695,
    "threePct": 0.3418,
    "wins": 19.0,
    "losses": 11.0
  },
  {
    "season": 2022,
    "teamId": "1610612737",
    "team": "Hawks",
    "city": "Atlanta",
    "abbr": "ATL",
    "conference": "East",
    "lat": 33.749,
    "lon": -84.388,
    "offRtg": 113.94,
    "threeRate": 0.3363,
    "threePct": 0.3384,
    "wins": 16.0,
    "losses": 16.0
  },
  {
    "season": 2022,
    "teamId": "1610612748",
    "team": "Heat",
    "city": "Miami",
    "abbr": "MIA",
    "conference": "East",
    "lat": 25.7617,
    "lon": -80.1918,
    "offRtg": 108.76,
    "threeRate": 0.4306,
    "threePct": 0.3435,
    "wins": 16.0,
    "losses": 16.0
  },
  {
    "season": 2022,
    "teamId": "1610612766",
    "team": "Hornets",
    "city": "Charlotte",
    "abbr": "CHA",
    "conference": "East",
    "lat": 35.2271,
    "lon": -80.8431,
    "offRtg": 109.0,
    "threeRate": 0.3481,
    "threePct": 0.3108,
    "wins": 8.0,
    "losses": 24.0
  },
  {
    "season": 2022,
    "teamId": "1610612762",
    "team": "Jazz",
    "city": "Utah",
    "abbr": "UTA",
    "conference": "West",
    "lat": 40.7608,
    "lon": -111.891,
    "offRtg": 115.41,
    "threeRate": 0.4374,
    "threePct": 0.3651,
    "wins": 19.0,
    "losses": 16.0
  },
  {
    "season": 2022,
    "teamId": "1610612758",
    "team": "Kings",
    "city": "Sacramento",
    "abbr": "SAC",
    "conference": "West",
    "lat": 38.5816,
    "lon": -121.4944,
    "offRtg": 118.24,
    "threeRate": 0.4327,
    "threePct": 0.3611,
    "wins": 17.0,
    "losses": 13.0
  },
  {
    "season": 2022,
    "teamId": "1610612752",
    "team": "Knicks",
    "city": "New York",
    "abbr": "NYK",
    "conference": "East",
    "lat": 40.7128,
    "lon": -74.006,
    "offRtg": 114.31,
    "threeRate": 0.3796,
    "threePct": 0.3333,
    "wins": 18.0,
    "losses": 14.0
  },
  {
    "season": 2022,
    "teamId": "1610612747",
    "team": "Lakers",
    "city": "Los Angeles",
    "abbr": "LAL",
    "conference": "West",
    "lat": 34.0522,
    "lon": -118.2437,
    "offRtg": 113.11,
    "threeRate": 0.354,
    "threePct": 0.3221,
    "wins": 13.0,
    "losses": 18.0
  },
  {
    "season": 2022,
    "teamId": "1610612753",
    "team": "Magic",
    "city": "Orlando",
    "abbr": "ORL",
    "conference": "East",
    "lat": 28.5383,
    "lon": -81.3792,
    "offRtg": 109.08,
    "threeRate": 0.3798,
    "threePct": 0.3367,
    "wins": 12.0,
    "losses": 21.0
  },
  {
    "season": 2022,
    "teamId": "1610612742",
    "team": "Mavericks",
    "city": "Dallas",
    "abbr": "DAL",
    "conference": "West",
    "lat": 32.7767,
    "lon": -96.797,
    "offRtg": 110.51,
    "threeRate": 0.5012,
    "threePct": 0.358,
    "wins": 16.0,
    "losses": 16.0
  },
  {
    "season": 2022,
    "teamId": "1610612751",
    "team": "Nets",
    "city": "Brooklyn",
    "abbr": "BKN",
    "conference": "East",
    "lat": 40.6782,
    "lon": -73.9442,
    "offRtg": 112.64,
    "threeRate": 0.3748,
    "threePct": 0.3746,
    "wins": 20.0,
    "losses": 12.0
  },
  {
    "season": 2022,
    "teamId": "1610612743",
    "team": "Nuggets",
    "city": "Denver",
    "abbr": "DEN",
    "conference": "West",
    "lat": 39.7392,
    "lon": -104.9903,
    "offRtg": 115.11,
    "threeRate": 0.3507,
    "threePct": 0.3816,
    "wins": 19.0,
    "losses": 11.0
  },
  {
    "season": 2022,
    "teamId": "1610612754",
    "team": "Pacers",
    "city": "Indiana",
    "abbr": "IND",
    "conference": "East",
    "lat": 39.7684,
    "lon": -86.1581,
    "offRtg": 114.71,
    "threeRate": 0.4355,
    "threePct": 0.3596,
    "wins": 16.0,
    "losses": 16.0
  },
  {
    "season": 2022,
    "teamId": "1610612740",
    "team": "Pelicans",
    "city": "New Orleans",
    "abbr": "NOP",
    "conference": "West",
    "lat": 29.9511,
    "lon": -90.0715,
    "offRtg": 117.11,
    "threeRate": 0.345,
    "threePct": 0.3603,
    "wins": 19.0,
    "losses": 12.0
  },
  {
    "season": 2022,
    "teamId": "1610612765",
    "team": "Pistons",
    "city": "Detroit",
    "abbr": "DET",
    "conference": "East",
    "lat": 42.3314,
    "lon": -83.0458,
    "offRtg": 109.82,
    "threeRate": 0.3915,
    "threePct": 0.3395,
    "wins": 8.0,
    "losses": 26.0
  },
  {
    "season": 2022,
    "teamId": "1610612761",
    "team": "Raptors",
    "city": "Toronto",
    "abbr": "TOR",
    "conference": "East",
    "lat": 43.6532,
    "lon": -79.3832,
    "offRtg": 111.65,
    "threeRate": 0.3536,
    "threePct": 0.3115,
    "wins": 14.0,
    "losses": 18.0
  },
  {
    "season": 2022,
    "teamId": "1610612745",
    "team": "Rockets",
    "city": "Houston",
    "abbr": "HOU",
    "conference": "West",
    "lat": 29.7604,
    "lon": -95.3698,
    "offRtg": 110.8,
    "threeRate": 0.3918,
    "threePct": 0.341,
    "wins": 9.0,
    "losses": 22.0
  },
  {
    "season": 2022,
    "teamId": "1610612759",
    "team": "Spurs",
    "city": "San Antonio",
    "abbr": "SAS",
    "conference": "West",
    "lat": 29.4241,
    "lon": -98.4936,
    "offRtg": 109.5,
    "threeRate": 0.3723,
    "threePct": 0.3383,
    "wins": 10.0,
    "losses": 21.0
  },
  {
    "season": 2022,
    "teamId": "1610612756",
    "team": "Suns",
    "city": "Phoenix",
    "abbr": "PHX",
    "conference": "West",
    "lat": 33.4484,
    "lon": -112.074,
    "offRtg": 115.11,
    "threeRate": 0.3818,
    "threePct": 0.3719,
    "wins": 19.0,
    "losses": 13.0
  },
  {
    "season": 2022,
    "teamId": "1610612760",
    "team": "Thunder",
    "city": "Oklahoma City",
    "abbr": "OKC",
    "conference": "West",
    "lat": 35.4676,
    "lon": -97.5164,
    "offRtg": 114.56,
    "threeRate": 0.3665,
    "threePct": 0.34,
    "wins": 14.0,
    "losses": 18.0
  },
  {
    "season": 2022,
    "teamId": "1610612750",
    "team": "Timberwolves",
    "city": "Minnesota",
    "abbr": "MIN",
    "conference": "West",
    "lat": 44.9778,
    "lon": -93.265,
    "offRtg": 114.92,
    "threeRate": 0.3759,
    "threePct": 0.3399,
    "wins": 16.0,
    "losses": 16.0
  },
  {
    "season": 2022,
    "teamId": "1610612757",
    "team": "Trail Blazers",
    "city": "Portland",
    "abbr": "POR",
    "conference": "West",
    "lat": 45.5152,
    "lon": -122.6784,
    "offRtg": 110.5,
    "threeRate": 0.391,
    "threePct": 0.3823,
    "wins": 17.0,
    "losses": 15.0
  },
  {
    "season": 2022,
    "teamId": "1610612744",
    "team": "Warriors",
    "city": "Golden State",
    "abbr": "GSW",
    "conference": "West",
    "lat": 37.7749,
    "lon": -122.4194,
    "offRtg": 116.0,
    "threeRate": 0.4727,
    "threePct": 0.3744,
    "wins": 15.0,
    "losses": 18.0
  },
  {
    "season": 2022,
    "teamId": "1610612764",
    "team": "Wizards",
    "city": "Washington",
    "abbr": "WAS",
    "conference": "East",
    "lat": 38.9072,
    "lon": -77.0369,
    "offRtg": 109.24,
    "threeRate": 0.3702,
    "threePct": 0.3347,
    "wins": 12.0,
    "losses": 21.0
  }
]